{
"type": "FeatureCollection",
"crs": { "type": "name", "properties": { "name": "urn:ogc:def:crs:OGC:1.3:CRS84" } },
                                                                                
"features": [
{ "type": "Feature", "properties": { "Name": "9th Street Lofts", "Status": "Occupied", "# Units": "50", "Type": "for sale", "Address": "215 9th St E", "City": "St. Paul", "State": "MN", "Affordabil": "Market rate", "addrtype": "street_address", "addrlocat": "RANGE_INTERPOLATED", "num_units": 50 }, "geometry": { "type": "Point", "coordinates": [ -93.0905662, 44.9521291 ] } },
{ "type": "Feature", "properties": { "Name": "American House", "Status": "Occupied", "# Units": "13", "Type": "supportive rental", "Address": "Wacouta and 4th", "City": "St. Paul", "State": "MN", "Affordabil": "All affordable at _ 30% of Area Median Income", "addrtype": "intersection", "addrlocat": "APPROXIMATE", "num_units": 13 }, "geometry": { "type": "Point", "coordinates": [ -93.0862608, 44.9485283 ] } },
{ "type": "Feature", "properties": { "Name": "Dakota", "Status": "Occupied", "# Units": "38", "Type": "for sale", "Address": "209 8th Street", "City": "St. Paul", "State": "MN", "Affordabil": "Market rate", "addrtype": "street_address", "addrlocat": "ROOFTOP", "num_units": 38 }, "geometry": { "type": "Point", "coordinates": [ -93.090355, 44.951467 ] } },
{ "type": "Feature", "properties": { "Name": "Essex", "Status": "Occupied", "# Units": "37", "Type": "for sale", "Address": "445 Wacouta St", "City": "St. Paul", "State": "MN", "Affordabil": "Market rate", "addrtype": "street_address", "addrlocat": "ROOFTOP", "num_units": 37 }, "geometry": { "type": "Point", "coordinates": [ -93.089499, 44.951182 ] } },
{ "type": "Feature", "properties": { "Name": "Great Northern Lofts", "Status": "Occupied", "# Units": "53", "Type": "for sale", "Address": "281 Kellogg Blvd E", "City": "St. Paul", "State": "MN", "Affordabil": "Market rate", "addrtype": "street_address", "addrlocat": "RANGE_INTERPOLATED", "num_units": 53 }, "geometry": { "type": "Point", "coordinates": [ -93.0843761, 44.9482586 ] } },
{ "type": "Feature", "properties": { "Name": "Produce Exchange Building", "Status": "Occupied", "# Units": "38", "Type": "for sale", "Address": "523 Jackson St", "City": "St. Paul", "State": "MN", "Affordabil": "Market rate", "addrtype": "street_address", "addrlocat": "ROOFTOP", "num_units": 38 }, "geometry": { "type": "Point", "coordinates": [ -93.0937527, 44.9522223 ] } },
{ "type": "Feature", "properties": { "Name": "Rossmor", "Status": "Occupied", "# Units": "109", "Type": "for sale", "Address": "500 Robert St", "City": "St. Paul", "State": "MN", "Affordabil": "Market rate", "addrtype": "street_address", "addrlocat": "ROOFTOP", "num_units": 109 }, "geometry": { "type": "Point", "coordinates": [ -93.0940163, 44.9510749 ] } },
{ "type": "Feature", "properties": { "Name": "Sibley Court Apartments", "Status": "Occupied", "# Units": "114", "Type": "rental", "Address": "484 Temperance St", "City": "St. Paul", "State": "MN", "Affordabil": "All affordable", "addrtype": "street_address", "addrlocat": "ROOFTOP", "num_units": 114 }, "geometry": { "type": "Point", "coordinates": [ -93.0908808, 44.9513631 ] } },
{ "type": "Feature", "properties": { "Name": "Sibley Park Apartments", "Status": "Occupied", "# Units": "122", "Type": "rental", "Address": "211 7th St E", "City": "St. Paul", "State": "MN", "Affordabil": "All affordable", "addrtype": "street_address", "addrlocat": "ROOFTOP", "num_units": 122 }, "geometry": { "type": "Point", "coordinates": [ -93.089556, 44.950828 ] } },
{ "type": "Feature", "properties": { "Name": "Strauss Apartments", "Status": "Occupied", "# Units": "49", "Type": "rental", "Address": "Sibley and 5th St E", "City": "St. Paul", "State": "MN", "Affordabil": "All affordable", "addrtype": "intersection", "addrlocat": "APPROXIMATE", "num_units": 49 }, "geometry": { "type": "Point", "coordinates": [ -93.088124, 44.94871 ] } },
{ "type": "Feature", "properties": { "Name": "Lot 270", "Status": "Occupied", "# Units": "45", "Type": "for sale", "Address": "281 Kellogg Blvd E", "City": "St. Paul", "State": "MN", "Affordabil": "Market rate", "addrtype": "street_address", "addrlocat": "RANGE_INTERPOLATED", "num_units": 45 }, "geometry": { "type": "Point", "coordinates": [ -93.0843761, 44.9482586 ] } },
{ "type": "Feature", "properties": { "Name": "Lyon's Court", "Status": "Occupied", "# Units": "60", "Type": "senior rental", "Address": "10th Ave and Sibley St", "City": "St. Paul", "State": "MN", "Affordabil": "All affordable", "addrtype": "intersection", "addrlocat": "APPROXIMATE", "num_units": 60 }, "geometry": { "type": "Point", "coordinates": [ -93.0916374, 44.9528706 ] } },
{ "type": "Feature", "properties": { "Name": "Printer's Row I", "Status": "Occupied", "# Units": "42", "Type": "for sale", "Address": "209 9th St E", "City": "St. Paul", "State": "MN", "Affordabil": "Market rate", "addrtype": "street_address", "addrlocat": "RANGE_INTERPOLATED", "num_units": 42 }, "geometry": { "type": "Point", "coordinates": [ -93.0909384, 44.9519423 ] } },
{ "type": "Feature", "properties": { "Name": "Crane", "Status": "Occupied", "# Units": "70", "Type": "rental", "Address": "Wall and 5th S E", "City": "St. Paul", "State": "MN", "Affordabil": "All affordable 1\/2 at _ 30% & 1\/2 at 31 _ 50% AMI", "addrtype": "intersection", "addrlocat": "APPROXIMATE", "num_units": 70 }, "geometry": { "type": "Point", "coordinates": [ -93.0858199, 44.9498179 ] } },
{ "type": "Feature", "properties": { "Name": "Lowry", "Status": "Occupied", "# Units": "135", "Type": "for sale", "Address": "350 Saint Peter St", "City": "St. Paul", "State": "MN", "Affordabil": "Market rate", "addrtype": "street_address", "addrlocat": "ROOFTOP", "num_units": 135 }, "geometry": { "type": "Point", "coordinates": [ -93.0949213, 44.944605 ] } },
{ "type": "Feature", "properties": { "Name": "River Park Lofts", "Status": "Occupied", "# Units": "119", "Type": "for sale", "Address": "245 6th St E", "City": "St. Paul", "State": "MN", "Affordabil": "Market rate", "addrtype": "street_address", "addrlocat": "ROOFTOP", "num_units": 119 }, "geometry": { "type": "Point", "coordinates": [ -93.0874958, 44.9505073 ] } },
{ "type": "Feature", "properties": { "Name": "Commerce Building, Phase 1", "Status": "Occupied", "# Units": "55", "Type": "rental", "Address": "4th and Wabasha", "City": "St. Paul", "State": "MN", "Affordabil": "All affordable", "addrtype": "intersection", "addrlocat": "APPROXIMATE", "num_units": 55 }, "geometry": { "type": "Point", "coordinates": [ -93.093669, 44.944858 ] } },
{ "type": "Feature", "properties": { "Name": "Upper Landing", "Status": "Occupied", "# Units": "434", "Type": "rental", "Address": "Shepard and Chestnut", "City": "St. Paul", "State": "MN", "Affordabil": "Market rate, 88 affordable units in Joseph's Point", "addrtype": "intersection", "addrlocat": "APPROXIMATE", "num_units": 434 }, "geometry": { "type": "Point", "coordinates": [ -93.0997052, 44.9405507 ] } },
{ "type": "Feature", "properties": { "Name": "Upper Landing", "Status": "Occupied", "# Units": "272", "Type": "for sale", "Address": "Shepard and Chestnut", "City": "St. Paul", "State": "MN", "Affordabil": "Market rate", "addrtype": "intersection", "addrlocat": "APPROXIMATE", "num_units": 272 }, "geometry": { "type": "Point", "coordinates": [ -93.0997052, 44.9405507 ] } },
{ "type": "Feature", "properties": { "Name": "Lowertown Lofts Apartments", "Status": "Occupied", "# Units": "107", "Type": "rental", "Address": "240 East 5th Street", "City": "St. Paul", "State": "MN", "Affordabil": "Market rate", "addrtype": "premise", "addrlocat": "ROOFTOP", "num_units": 107 }, "geometry": { "type": "Point", "coordinates": [ -93.0871453, 44.9488627 ] } },
{ "type": "Feature", "properties": { "Name": "Bonnie Jean", "Status": "Occupied", "# Units": "13", "Type": "rental", "Address": "7th and Sibley", "City": "St. Paul", "State": "MN", "Affordabil": "Market rate", "addrtype": "intersection", "addrlocat": "APPROXIMATE", "num_units": 13 }, "geometry": { "type": "Point", "coordinates": [ -93.0896405, 44.9505526 ] } },
{ "type": "Feature", "properties": { "Name": "Union Depot", "Status": "Occupied", "# Units": "30", "Type": "for sale", "Address": "211 East 7th Street", "City": "St. Paul", "State": "MN", "Affordabil": "Market rate", "addrtype": "street_address", "addrlocat": "RANGE_INTERPOLATED", "num_units": 30 }, "geometry": { "type": "Point", "coordinates": [ -93.0896335, 44.9505649 ] } },
{ "type": "Feature", "properties": { "Name": "Minnesota Building (closed 2010)", "Status": "Occupied", "# Units": "137", "Type": "rental", "Address": "Minnesota and 4th", "City": "St. Paul", "State": "MN", "Affordabil": "All affordable", "addrtype": "intersection", "addrlocat": "APPROXIMATE", "num_units": 137 }, "geometry": { "type": "Point", "coordinates": [ -93.0912794, 44.946043 ] } },
{ "type": "Feature", "properties": { "Name": "Renaissance Box (closed 2010)", "Status": "Occupied", "# Units": "70", "Type": "rental", "Address": "Sibley and 9th", "City": "St. Paul", "State": "MN", "Affordabil": "All affordable  1\/2 at _ 30% & 1\/2 at 31 _ 50% AMI", "addrtype": "intersection", "addrlocat": "APPROXIMATE", "num_units": 70 }, "geometry": { "type": "Point", "coordinates": [ -93.0907659, 44.9520089 ] } },
{ "type": "Feature", "properties": { "Name": "Commerce Building, Phase 2 (closed 2011)", "Status": "Occupied", "# Units": "45", "Type": "rental", "Address": "4th and Wabasha", "City": "St. Paul", "State": "MN", "Affordabil": "All affordable", "addrtype": "intersection", "addrlocat": "APPROXIMATE", "num_units": 45 }, "geometry": { "type": "Point", "coordinates": [ -93.093669, 44.944858 ] } },
{ "type": "Feature", "properties": { "Name": "Lofts at Farmers Market (closed 2011)", "Status": "Occupied", "# Units": "58", "Type": "rental", "Address": "5th St E and Wall", "City": "St. Paul", "State": "MN", "Affordabil": "Market rate", "addrtype": "intersection", "addrlocat": "APPROXIMATE", "num_units": 58 }, "geometry": { "type": "Point", "coordinates": [ -93.0858199, 44.9498179 ] } },
{ "type": "Feature", "properties": { "Name": "The Penfield (completed 2013)", "Status": "Occupied", "# Units": "254", "Type": "rental", "Address": "10th and Minnesota", "City": "St. Paul", "State": "MN", "Affordabil": "Market rate", "addrtype": "intersection", "addrlocat": "APPROXIMATE", "num_units": 254 }, "geometry": { "type": "Point", "coordinates": [ -93.0958395, 44.9507458 ] } },
{ "type": "Feature", "properties": { "Name": "West Side Flats (completed 2014)", "Status": "Occupied", "# Units": "178", "Type": "rental", "Address": "Wabasha and Fillmore", "City": "St. Paul", "State": "MN", "Affordabil": "Market rate, 34 affordable units 50% of AMI", "addrtype": "intersection", "addrlocat": "APPROXIMATE", "num_units": 178 }, "geometry": { "type": "Point", "coordinates": [ -93.0894843, 44.939425 ] } },
{ "type": "Feature", "properties": { "Name": "Rayette Lofts (completed 2014)", "Status": "Occupied", "# Units": "88", "Type": "rental", "Address": "5th and Wall Street", "City": "St. Paul", "State": "MN", "Affordabil": "Market rate", "addrtype": "intersection", "addrlocat": "APPROXIMATE", "num_units": 88 }, "geometry": { "type": "Point", "coordinates": [ -93.0858199, 44.9498179 ] } },
{ "type": "Feature", "properties": { "Name": "Pioneer Endicott (completed 2014)", "Status": "Occupied", "# Units": "234", "Type": "rental", "Address": "350 Robert Street N", "City": "St. Paul", "State": "MN", "Affordabil": "Market rate", "addrtype": "premise", "addrlocat": "ROOFTOP", "num_units": 234 }, "geometry": { "type": "Point", "coordinates": [ -93.0903454, 44.947091 ] } },
{ "type": "Feature", "properties": { "Name": "Printer's Row II", "Status": "Pre-development", "# Units": "37", "Type": "for sale", "Address": "Temperance and 9th", "City": "St. Paul", "State": "MN", "Affordabil": null, "addrtype": "intersection", "addrlocat": "APPROXIMATE", "num_units": 37 }, "geometry": { "type": "Point", "coordinates": [ -93.091498, 44.9516583 ] } },
{ "type": "Feature", "properties": { "Name": "7 Corners Hardware", "Status": "Pre-development", "# Units": "191", "Type": "rental", "Address": "216 West 7th Street", "City": "St. Paul", "State": "MN", "Affordabil": "Market rate", "addrtype": "street_address", "addrlocat": "RANGE_INTERPOLATED", "num_units": 191 }, "geometry": { "type": "Point", "coordinates": [ -93.1038795, 44.9435472 ] } },
{ "type": "Feature", "properties": { "Name": "7 Corners Gateway", "Status": "Pre-development", "# Units": null, "Type": null, "Address": null, "City": "St. Paul", "State": "MN", "Affordabil": null, "addrtype": "locality", "addrlocat": "APPROXIMATE", "num_units": null }, "geometry": { "type": "Point", "coordinates": [ -93.0899578, 44.9537029 ] } },
{ "type": "Feature", "properties": { "Name": "Sibley 333 Lofts", "Status": "Pre-development", "# Units": "136", "Type": "rental", "Address": "333 Sibley Street", "City": "St. Paul", "State": "MN", "Affordabil": "Market rate", "addrtype": "street_address", "addrlocat": "RANGE_INTERPOLATED", "num_units": 136 }, "geometry": { "type": "Point", "coordinates": [ -93.0879821, 44.9485383 ] } },
{ "type": "Feature", "properties": { "Name": "Dorothy Day\/Higher Ground II", "Status": "Pre-development", "# Units": "193", "Type": "supportive rental", "Address": "411 Main Street", "City": "St. Paul", "State": "MN", "Affordabil": "Also 278 shelter beds", "addrtype": "premise", "addrlocat": "ROOFTOP", "num_units": 193 }, "geometry": { "type": "Point", "coordinates": [ -93.1024656, 44.9471514 ] } },
{ "type": "Feature", "properties": { "Name": "Dorothy Day\/Phase II (Connections Center)", "Status": "Pre-development", "# Units": "166", "Type": "supportive rental", "Address": "183 Old 6th St W", "City": "St. Paul", "State": "MN", "Affordabil": null, "addrtype": "premise", "addrlocat": "ROOFTOP", "num_units": 166 }, "geometry": { "type": "Point", "coordinates": [ -93.1010493, 44.9469695 ] } },
{ "type": "Feature", "properties": { "Name": "West Side Flats Phase III", "Status": "Pre-development", "# Units": "266", "Type": "rental", "Address": null, "City": "St. Paul", "State": "MN", "Affordabil": "Mixed-income", "addrtype": "locality", "addrlocat": "APPROXIMATE", "num_units": 266 }, "geometry": { "type": "Point", "coordinates": [ -93.0899578, 44.9537029 ] } },
{ "type": "Feature", "properties": { "Name": "Custom House", "Status": "Under Construction", "# Units": "202", "Type": "rental", "Address": "180 Kellogg Blvd", "City": "St. Paul", "State": "MN", "Affordabil": "Market rate", "addrtype": "street_address", "addrlocat": "RANGE_INTERPOLATED", "num_units": 202 }, "geometry": { "type": "Point", "coordinates": [ -93.0873663, 44.9467828 ] } }
]
}
